{
    "work": [
        {
            "company": "Etsy",
            "title": "Senior Software Engineer",
            "start": "May 2017 - Now",
            "location": {
                "city": "New York City",
                "state": "New York",
                "country": "United States"
            }
        },
        {
            "company": "Kinnek",
            "title": "Senior Frontend Engineer",
            "start": "Nov 2015 - May 2017",
            "location": {
                "city": "New York City",
                "state": "New York",
                "country": "United States"
            }
        },
        {
            "company": "OkCupid/DateHookup",
            "title": "Frontend Developer",
            "start": "Jan 2014 - Nov 2015",
            "location": {
                "city": "New York City",
                "state": "New York",
                "country": "United States"
            }
        },
        {
            "company": "Webs",
            "title": "Frontend Intern",
            "start": "Jan 2013 - Jan 2014",
            "location": {
                "city": "Silverspring",
                "state": "Maryland",
                "country": "United States"
            }
        },
        {
            "company": "NASA Goddard",
            "title": "Software Engineering Intern",
            "start": "Mar 2010 - Jan 2013",
            "location": {
                "city": "Greenbelt",
                "state": "Maryland",
                "country": "United States"
            }
        }
    ],
    "extras": [
        {
            "title": "WOCinTech Chat Photoshoots",
            "link": "https://www.flickr.com/photos/wocintechchat/albums",
            "description": "I particated in two of the WOCInTechChat Photoshoots. The photos are stock photos, that can be used under a creative commons license with attribution."
        },
        {
            "title": "The Journey Towards Staying",
            "link": "https://medium.com/@thalidanoel/the-journey-towards-staying-af25c4d78da5#.abu2ga2eq",
            "description": "One of the most consequential issues affecting young people is also the most ignored."
        },
        {
            "title": "Dribbble",
            "link": "https://dribbble.com/thalida",
            "description": "Check out my designs and get a preview of the projects I'm currently working on."
        }
    ]
}
